City,Cloudiness,Country,Date,Humidity,Lat,Lng,Max Temp,Wind Speed
Jamestown,34,AU,1559434799,76,-33.21,138.6,52.77,4.83
Lunglei,35,IN,1559434800,90,22.89,92.75,73.83,1.81
Hobart,75,AU,1559434800,70,-42.88,147.33,50.0,6.93
Hermanus,89,ZA,1559434800,97,-34.42,19.24,55.0,12.66
Vila Velha,20,BR,1559434801,78,-3.71,-38.6,86.0,6.93
Punta Arenas,90,CL,1559434801,86,-53.16,-70.91,41.0,21.92
Ushuaia,40,AR,1559434801,80,-54.81,-68.31,35.6,17.22
Orchard Homes,1,US,1559434802,29,46.86,-114.05,80.6,3.31
Iwanai,0,JP,1559434802,67,42.97,140.51,59.61,8.25
Coria,12,ES,1559434802,35,39.98,-6.54,72.39,4.85
Victoria,75,BN,1559434574,88,5.28,115.24,82.4,1.12
Airai,60,TL,1559434803,66,-8.93,125.41,79.77,9.84
Provideniya,26,RU,1559434803,62,64.42,-173.23,46.65,5.46
Naples,1,US,1559434645,66,26.14,-81.79,87.8,9.17
Carnarvon,42,ZA,1559434804,50,-30.97,22.13,50.79,2.93
Eskisehir,0,TR,1559434676,88,39.78,30.52,62.6,4.7
Flin Flon,40,CA,1559434805,30,54.77,-101.88,57.2,6.93
Axim,100,GH,1559434805,89,4.87,-2.24,76.53,5.32
Qaanaaq,100,GL,1559434805,91,77.48,-69.36,27.03,7.16
Bambous Virieux,75,MU,1559434806,88,-20.34,57.76,73.4,4.7
San Bonifacio,0,IT,1559434806,72,45.4,11.27,69.01,5.82
Roebourne,0,AU,1559434807,16,-20.77,117.15,63.93,21.61
Cabo San Lucas,5,MX,1559434703,60,22.89,-109.91,84.99,21.92
Dikson,100,RU,1559434807,94,73.51,80.55,31.71,10.94
Ranong,40,TH,1559434808,100,9.96,98.62,77.0,3.15
Albany,75,US,1559434808,50,42.65,-73.75,77.0,9.17
Upernavik,0,GL,1559434808,90,72.79,-56.15,31.71,9.42
Fernandez,72,PH,1559434809,69,11.38,122.76,85.35,5.44
Buala,99,SB,1559434809,80,-8.15,159.59,82.65,18.3
Khandbari,3,NP,1559434809,60,27.38,87.21,51.51,4.88
Riyadh,0,SA,1559434615,13,24.63,46.72,86.0,3.36
Yellowknife,90,CA,1559434810,57,62.45,-114.38,50.0,16.11
Morondava,0,MG,1559434810,73,-20.3,44.28,75.99,7.58
East London,0,ZA,1559434811,50,-33.02,27.91,59.07,4.59
Saskylakh,0,RU,1559434811,63,71.97,114.09,44.31,8.39
Cap-aux-Meules,40,CA,1559434812,93,47.38,-61.86,44.6,10.29
Barrow,8,AR,1559434812,54,-38.31,-60.23,52.59,9.98
Kahului,40,US,1559434534,61,20.89,-156.47,82.4,17.22
New Norfolk,75,AU,1559434813,70,-42.78,147.06,50.0,6.93
Pilar,0,AR,1559434813,87,-34.46,-58.91,61.0,4.7
Nioki,84,CD,1559434814,89,-2.72,17.69,73.11,1.79
Khatanga,93,RU,1559434814,81,71.98,102.47,41.79,7.14
Raduzhnyy,0,RU,1559434814,63,62.1,77.47,40.17,5.12
Chicama,40,PE,1559434815,88,-7.84,-79.15,66.2,10.29
Trindade,0,BR,1559434815,57,-16.66,-49.49,77.0,4.7
Hambantota,100,LK,1559434816,81,6.12,81.12,82.47,16.42
Laguna,5,MX,1559434816,54,27.52,-110.01,84.2,12.75
Lebu,91,ET,1559434817,80,8.96,38.73,58.89,4.12
Avarua,1,CK,1559434672,74,-21.21,-159.78,80.6,18.34
Grand Gaube,75,MU,1559434817,88,-20.01,57.66,73.4,4.7
Mar del Plata,100,AR,1559434817,87,-46.43,-67.52,44.31,6.24
Singleton,90,AU,1559434818,93,-32.57,151.17,62.01,6.93
Port Elizabeth,1,US,1559434818,83,39.31,-74.98,78.01,6.93
Bluff,76,AU,1559434818,76,-23.58,149.07,60.15,8.95
Vaini,38,IN,1559434819,81,15.34,74.49,78.33,1.74
Longyearbyen,0,NO,1559434819,69,78.22,15.63,33.8,5.82
Chuy,11,UY,1559434819,71,-33.69,-53.46,60.51,8.25
Rincon,40,US,1559434642,51,32.3,-81.24,93.2,10.29
Gafargaon,0,BD,1559434820,87,24.46,90.55,77.61,6.35
Saint-Pierre,0,FR,1559434820,82,48.95,4.24,62.6,1.12
Butaritari,52,KI,1559434821,72,3.07,172.79,84.09,6.06
Cherskiy,86,RU,1559434821,44,68.75,161.3,52.95,15.93
Avera,1,US,1559434821,42,33.19,-82.53,89.6,3.36
Rosarito,40,CO,1559434821,94,4.91,-75.23,75.2,2.24
Mataura,38,NZ,1559434822,83,-46.19,168.86,48.99,4.0
Hay River,90,CA,1559434822,71,60.82,-115.79,53.6,17.22
Shieli,63,KZ,1559434822,44,44.18,66.74,75.99,1.16
Ribeira Grande,99,PT,1559434823,93,38.52,-28.7,66.63,10.78
Mutoko,0,ZW,1559434823,51,-17.4,32.23,53.31,3.58
Nome,1,US,1559434823,79,30.04,-94.42,90.0,5.06
Saint-Philippe,90,CA,1559434824,55,45.36,-73.48,64.99,4.7
Hithadhoo,84,MV,1559434824,78,-0.6,73.08,83.91,10.09
Toyooka,0,JP,1559434824,100,35.55,134.82,66.2,5.82
Lodwar,90,KE,1559434825,47,3.12,35.6,85.53,4.32
Sri Aman,100,MY,1559434825,100,1.24,111.46,75.2,3.36
Byron Bay,31,AU,1559434825,68,-28.65,153.62,71.01,10.29
Rikitea,100,PF,1559434825,79,-23.12,-134.97,73.83,23.4
Port-Gentil,40,GA,1559434826,94,-0.72,8.78,75.2,10.29
Harper,1,US,1559434826,51,30.3,-99.24,87.8,6.93
Capitao Poco,100,BR,1559434738,98,-1.75,-47.06,74.55,3.83
Mpanda,8,TZ,1559434827,74,-6.34,31.07,62.85,2.19
Bethel,75,US,1559434827,87,60.79,-161.76,57.2,12.75
Kapaa,20,US,1559434827,69,22.08,-159.32,84.2,13.87
Lagoa,0,PT,1559434828,43,37.14,-8.45,72.0,8.05
Bathsheba,20,BB,1559434797,74,13.22,-59.52,82.4,11.41
Mahebourg,75,MU,1559434828,88,-20.41,57.7,73.4,4.7
Atuona,9,PF,1559434829,76,-9.8,-139.03,81.93,11.27
Miyako,75,JP,1559434829,68,33.63,130.94,73.0,5.82
Waingapu,46,ID,1559434829,76,-9.65,120.26,77.61,14.65
Thompson,75,CA,1559434710,49,55.74,-97.86,48.2,11.41
Rawson,74,AR,1559434830,59,-43.3,-65.11,50.43,6.62
Rocha,75,UY,1559434830,89,-34.48,-54.34,51.69,3.78
Sai Buri,76,TH,1559434830,92,6.7,101.62,76.35,1.81
Havre-Saint-Pierre,90,CA,1559434831,87,50.23,-63.6,44.6,5.82
Yatou,75,CM,1559434831,94,3.63,9.81,77.0,4.7
Saint George,40,GR,1559434684,67,39.45,22.34,60.8,4.68
Port Augusta,90,AU,1559434832,81,-32.49,137.76,53.6,6.93
Kieta,91,PG,1559434832,75,-6.22,155.63,84.45,14.32
Veraval,0,FR,1559434833,87,49.65,0.71,66.99,5.82
Soderhamn,34,SE,1559434833,98,61.3,17.06,44.01,4.88
Busselton,0,AU,1559434833,59,-33.64,115.35,57.99,16.69
Poum,50,MK,1559434834,82,41.28,20.71,45.75,2.89
Kaseda,90,JP,1559434834,93,31.42,130.32,68.0,6.93
Mehamn,100,NO,1559434834,95,71.03,27.85,38.37,12.88
Jalu,93,LY,1559434834,29,29.03,21.55,85.17,20.96
Broken Hill,90,AU,1559434835,93,-31.97,141.45,44.6,14.99
Souillac,0,FR,1559434835,64,45.6,-0.6,69.01,3.36
Tiksi,81,RU,1559434835,96,71.64,128.87,32.97,9.08
Margate,75,AU,1559434836,70,-43.03,147.26,50.0,6.93
Kodiak,1,US,1559434836,48,39.95,-94.76,82.99,10.29
Podosinovets,0,RU,1559434836,66,60.28,47.06,43.77,5.01
Maragogi,51,BR,1559434719,92,-9.01,-35.22,74.37,3.42
Port Alfred,18,ZA,1559434837,86,-33.59,26.89,61.0,1.99
Birjand,0,IR,1559434837,48,32.86,59.22,62.6,6.93
Semey,95,KZ,1559434838,88,50.41,80.25,59.97,9.06
Cape Town,40,ZA,1559434539,100,-33.93,18.42,59.0,8.05
Arraial do Cabo,5,BR,1559434838,88,-22.97,-42.02,74.55,0.43
Valreas,0,FR,1559434838,87,44.38,4.99,62.01,2.24
Severo-Kurilsk,100,RU,1559434839,92,50.68,156.12,41.07,14.85
Fayaoue,100,NC,1559434839,73,-20.65,166.53,74.01,18.43
Dong Hoi,100,VN,1559434839,72,17.48,106.6,82.29,2.64
Hilo,75,US,1559434840,65,19.71,-155.08,80.6,8.05
Saldanha,15,PT,1559434840,41,41.42,-6.55,64.83,3.24
Namibe,0,AO,1559434840,79,-15.19,12.15,67.53,8.61
Artyom,31,RU,1559434841,55,43.36,132.19,64.4,4.47
Saint-Augustin,0,FR,1559434841,77,44.83,-0.61,69.01,3.36
Bull Savanna,52,JM,1559434841,73,17.89,-77.59,83.19,7.11
Sitka,53,US,1559434841,62,37.17,-99.65,79.0,7.87
Khawhai,26,IN,1559434842,95,23.52,93.19,65.55,1.7
Fort Nelson,75,CA,1559434842,82,58.81,-122.69,55.4,2.24
Dudinka,90,RU,1559434842,92,69.41,86.18,30.2,11.18
Zvishavane,0,ZW,1559434843,73,-20.32,30.05,51.15,0.92
Katete,97,UG,1559434843,85,-0.78,29.75,63.03,2.84
Mandalgovi,0,MN,1559434843,43,45.76,106.27,48.09,20.71
Bredasdorp,62,ZA,1559434844,93,-34.53,20.04,53.6,4.7
Kuusamo,0,FI,1559434844,70,65.96,29.19,44.6,5.82
Samarai,100,PG,1559434844,81,-10.62,150.67,78.15,7.2
Castro,90,CL,1559434845,93,-42.48,-73.76,51.8,19.46
Vardo,1,US,1559434560,50,39.62,-77.74,78.8,5.82
Aquiraz,20,BR,1559434845,78,-3.9,-38.39,86.0,6.93
Esperance,20,TT,1559434846,69,10.24,-61.45,82.4,6.93
Georgetown,75,GY,1559434846,78,6.8,-58.16,82.4,9.17
Nikolskoye,40,RU,1559434847,54,59.7,30.79,57.2,4.47
Ashland,1,US,1559434847,69,38.48,-82.64,79.0,3.36
Manggar,100,ID,1559434848,92,-2.88,108.27,78.51,3.67
The Valley,40,AI,1559434718,83,18.22,-63.06,78.8,11.41
Hanumangarh,4,IN,1559434848,12,29.58,74.33,94.89,4.85
Necochea,12,AR,1559434849,89,-38.55,-58.74,50.0,7.0
Codrington,40,AU,1559434849,77,-28.95,153.24,64.99,5.82
Klaksvik,88,FO,1559434850,81,62.23,-6.59,44.6,10.29
Leningradskiy,6,RU,1559434850,92,69.38,178.42,32.43,10.11
Tuktoyaktuk,20,CA,1559434850,60,69.44,-133.03,42.8,18.34
Chabahar,0,IR,1559434850,42,25.29,60.65,89.13,7.72
Henties Bay,0,NA,1559434851,86,-22.12,14.28,56.37,11.3
Padang,40,ID,1559434717,94,-0.92,100.36,75.2,4.7
Mount Isa,0,AU,1559434851,38,-20.73,139.49,59.0,16.11
Buguruslan,37,RU,1559434852,95,53.66,52.44,59.25,6.11
Kendal,20,ID,1559434852,83,-6.92,110.2,75.2,2.24
Coahuayana,100,MX,1559434852,31,18.62,-100.35,96.51,0.43
Lavrentiya,2,RU,1559434853,53,65.58,-170.99,51.87,3.31
Mount Gambier,75,AU,1559434853,93,-37.83,140.78,50.0,10.29
Kautokeino,58,NO,1559434853,79,69.01,23.04,38.37,11.79
Sambava,89,MG,1559434854,98,-14.27,50.17,66.09,2.89
Touros,0,BR,1559434854,83,-5.2,-35.46,78.8,6.93
Tomohon,20,ID,1559434854,74,1.33,124.84,82.4,3.36
La Dolorita,40,VE,1559434854,69,10.49,-66.79,78.8,1.86
Torbay,90,CA,1559434855,100,47.66,-52.73,43.0,5.68
Bandar-e Anzali,0,IR,1559434855,82,37.47,49.46,68.0,4.7
Isangel,75,VU,1559434855,69,-19.55,169.27,77.0,8.05
Alexandria,1,US,1559434856,48,31.31,-92.44,90.0,3.36
Grindavik,40,IS,1559434856,75,63.84,-22.43,48.0,5.82
Yar-Sale,68,RU,1559434856,89,66.83,70.83,27.21,10.2
Ugoofaaru,100,MV,1559434857,73,5.67,73.0,84.99,10.67
Kidal,100,ML,1559434857,10,18.44,1.41,92.73,12.55
Brae,89,GB,1559434857,100,60.4,-1.35,50.0,13.87
Haines Junction,63,CA,1559434858,26,60.75,-137.51,56.01,8.68
Awbari,64,LY,1559434858,36,26.59,12.77,81.93,16.69
Lagoa Santa,0,BR,1559434858,56,-19.64,-43.9,71.6,3.36
Lucapa,52,AO,1559434858,37,-8.42,20.74,68.25,4.14
Kutulik,74,RU,1559434859,62,53.35,102.79,53.31,4.9
Montrose,75,AU,1559434860,76,-37.81,145.34,55.0,6.93
Tuatapere,38,NZ,1559434860,83,-46.13,167.69,48.99,4.0
Kaiyuan,49,CN,1559434861,51,42.54,124.04,70.05,15.97
San Lorenzo,89,HN,1559434862,76,13.43,-87.45,82.47,5.26
Ndjole,72,GA,1559434862,98,-0.18,10.76,73.29,2.66
San Patricio,98,PY,1559434862,95,-26.98,-56.83,62.49,6.73
Batouri,100,CM,1559434862,97,4.44,14.36,68.07,2.51
Arlit,77,NE,1559434863,29,18.74,7.39,92.91,13.96
Portland,1,US,1559434568,47,45.52,-122.67,82.4,17.22
Roald,99,NO,1559434863,87,62.58,6.12,46.4,3.36
Fare,0,PF,1559434864,67,-16.7,-151.02,81.21,6.71
Post Falls,20,US,1559434777,25,47.71,-116.95,87.01,9.17
Harkany,75,HU,1559434864,100,45.85,18.24,60.01,2.24
Honningsvag,99,NO,1559434865,95,70.98,25.97,38.73,13.8
Itagi,0,BR,1559434865,82,-14.16,-40.01,71.49,7.16
Tulun,95,RU,1559434865,69,54.56,100.58,46.83,6.93
Bahawalpur,0,PK,1559434865,9,29.39,71.66,98.31,5.5
Puerto Ayora,20,EC,1559434866,74,-0.74,-90.35,78.8,16.11
Narsaq,7,GL,1559434866,56,60.91,-46.05,42.8,12.75
Kropotkin,0,RU,1559434866,83,45.43,40.58,68.61,5.5
Spirit River,40,CA,1559434867,27,55.78,-118.84,79.0,25.28
Menongue,0,AO,1559434867,44,-14.66,17.68,53.49,2.01
Nhulunbuy,90,AU,1559434867,69,-12.18,136.78,77.0,18.34
Flinders,2,AU,1559434868,66,-34.58,150.85,64.99,8.05
Yaring,72,TH,1559434868,85,6.87,101.37,80.85,6.2
Husavik,0,CA,1559434868,32,50.56,-96.99,60.01,5.01
Hami,1,CN,1559434869,16,42.84,93.51,74.73,14.52
Pevek,0,RU,1559434869,81,69.7,170.27,35.49,13.76
Dillon,90,US,1559434727,63,45.22,-112.64,71.01,4.7
Poronaysk,95,RU,1559434869,67,49.22,143.1,59.25,3.09
Kaitangata,61,NZ,1559434870,76,-46.28,169.85,46.99,11.01
Sicuani,69,PE,1559434870,57,-14.27,-71.23,44.31,7.38
Yulara,90,AU,1559434871,75,-25.24,130.99,46.4,10.29
Faya,40,SA,1559434871,82,18.39,42.45,60.8,11.41
Rio Grande,10,BR,1559434872,87,-32.03,-52.1,55.47,2.48
Dolores,19,AR,1559434810,91,-36.31,-57.68,52.95,6.73
Tasiilaq,2,GL,1559434873,86,65.61,-37.64,28.4,10.29
Pergamino,18,AR,1559434874,88,-33.9,-60.57,54.0,3.09
Ilulissat,20,GL,1559434874,59,69.22,-51.1,39.2,3.36
Syriam,75,MM,1559434874,83,16.77,96.24,78.8,4.7
Bayan,47,MN,1559434875,58,47.25,107.54,42.69,17.72
Whitehorse,75,CA,1559434875,81,60.72,-135.06,50.0,5.82
Naze,75,NG,1559434875,100,5.43,7.07,75.2,5.17
Dabhol,80,IN,1559434876,72,17.6,73.17,84.99,4.83
Sevsk,3,RU,1559434876,85,52.15,34.49,55.83,3.33
Yako,98,BF,1559434876,51,12.96,-2.26,88.77,15.3
Kafue,2,ZM,1559434877,58,-15.74,28.18,54.75,2.98
Norman Wells,90,CA,1559434877,71,65.28,-126.83,53.6,2.24
Ayagoz,21,KZ,1559434877,62,47.96,80.43,59.79,7.74
Asyut,0,EG,1559434878,37,27.18,31.19,84.2,18.34
Clyde River,1,CA,1559434878,97,70.47,-68.59,35.6,4.7
Ocampo,44,PH,1559434878,71,13.56,123.37,85.89,4.41
Oum Hadjer,21,TD,1559434879,28,13.3,19.7,93.63,8.08
Jardim,22,BR,1559434879,92,-21.48,-56.15,63.57,8.05
Lompoc,40,US,1559434602,64,34.64,-120.46,70.0,11.41
Dourbali,100,TD,1559434880,33,11.81,15.86,95.25,9.31
Kihei,40,US,1559434880,61,20.76,-156.45,82.4,17.22
Ostrovnoy,57,RU,1559434880,66,68.05,39.51,43.05,17.65
Derbent,88,RU,1559434881,52,42.06,48.29,66.09,6.53
Constitucion,90,MX,1559434881,46,23.99,-104.67,71.6,4.7
Novoselytsya,0,UA,1559434881,100,48.22,26.27,57.2,5.37
Saint-Georges,1,CA,1559434882,53,46.12,-70.67,63.0,1.99
Pishin,0,PK,1559434882,26,30.58,67.0,72.75,2.82
Lagos,20,NG,1559434728,94,6.46,3.39,78.8,6.8
Xining,53,CN,1559434883,58,36.62,101.77,47.01,3.87
Harer,1,US,1559434883,30,42.19,-111.17,73.99,5.82
Nantucket,90,US,1559434884,93,41.28,-70.1,59.0,9.17
Jieshi,92,CN,1559434884,74,22.82,115.83,82.83,4.79
Ponta do Sol,1,BR,1559434884,89,-20.63,-46.0,63.75,1.48
Geraldton,75,CA,1559434884,65,49.72,-86.95,46.4,8.05
Male,93,UA,1559434885,92,50.74,33.7,59.25,6.93
Zlitan,55,LY,1559434885,78,32.47,14.57,66.27,10.33
Innisfail,75,CA,1559434885,29,52.02,-113.95,80.01,6.93
Plettenberg Bay,36,ZA,1559434886,95,-34.05,23.37,55.47,3.65
Benjamin Constant,75,BR,1559434886,83,-4.38,-70.03,78.8,3.36
Seymchan,100,RU,1559434886,75,62.93,152.39,50.61,15.14
Strezhevoy,90,RU,1559434887,87,60.73,77.6,42.8,2.24
Vanimo,100,PG,1559434887,73,-2.67,141.3,84.27,12.39
Cayenne,51,GF,1559434887,94,4.94,-52.33,75.2,2.24
Alyangula,90,AU,1559434888,60,-13.85,136.42,73.4,9.17
Hofn,96,IS,1559434888,79,64.25,-15.21,26.67,7.76
Bandarbeyla,93,SO,1559434888,83,9.49,50.81,77.97,7.72
Gambela,85,ET,1559434889,80,8.25,34.59,68.07,5.06
Iqaluit,20,CA,1559434889,69,63.75,-68.52,37.4,4.7
Porbandar,2,IN,1559434890,90,21.64,69.61,83.19,12.37
Santa Catalina,89,PH,1559434890,72,9.33,122.86,84.63,10.92
Hommersak,75,NO,1559434890,93,58.93,5.85,51.8,5.82
Entre Rios,11,BR,1559434891,97,-11.94,-38.08,70.59,3.33
Beringovskiy,49,RU,1559434891,59,63.05,179.32,48.63,5.08
Kavieng,33,PG,1559434891,74,-2.57,150.8,84.99,12.64
Ahmadpur East,0,PK,1559434891,9,29.14,71.26,97.41,9.51
West Wendover,1,US,1559434843,33,40.74,-114.07,73.4,4.7
Evensk,71,RU,1559434892,60,61.92,159.24,56.37,9.17
Khudumelapye,15,BW,1559434892,41,-23.91,24.95,56.19,8.81
Talnakh,90,RU,1559434892,92,69.49,88.39,30.2,11.18
Guerrero Negro,3,MX,1559434893,78,27.97,-114.04,65.37,11.99
Benghazi,20,LY,1559434609,81,32.12,20.07,67.53,14.79
Dubbo,75,AU,1559434612,76,-32.25,148.6,50.0,6.93
Ancud,90,CL,1559434893,93,-41.87,-73.83,51.8,19.46
Le Port,0,FR,1559434894,44,42.87,1.37,63.0,5.53
Manokwari,58,ID,1559434894,64,-0.87,134.08,80.67,4.65
Le Portel,0,FR,1559434895,88,50.71,1.57,64.99,6.93
Sao Joao da Barra,40,BR,1559434895,83,-21.64,-41.05,77.0,6.93
Virtsu,20,EE,1559434896,93,58.57,23.51,55.0,6.93
Atar,1,MR,1559434896,11,20.52,-13.05,93.27,3.36
Bahir Dar,97,ET,1559434896,82,11.59,37.39,63.21,2.39
Port Lincoln,90,AU,1559434897,65,-34.72,135.86,60.51,13.22
Srednekolymsk,0,RU,1559434897,51,67.46,153.71,48.81,11.3
Inhambane,3,MZ,1559434897,95,-23.87,35.38,62.49,2.46
Cap Malheureux,75,MU,1559434898,88,-19.98,57.61,73.4,4.7
Shahreza,2,IR,1559434898,45,32.01,51.87,60.15,4.45
Zhigansk,55,RU,1559434898,53,66.77,123.37,60.69,6.93
Luderitz,0,NA,1559434898,100,-26.65,15.16,48.2,2.24
Abu Kamal,73,SY,1559434899,15,34.45,40.92,90.57,10.09
Chokurdakh,100,RU,1559434899,82,70.62,147.9,35.85,12.64
Okhotsk,81,RU,1559434899,73,59.36,143.24,50.79,6.8
Salalah,20,OM,1559434900,79,17.01,54.1,84.2,3.36
Diamantino,12,BR,1559434900,57,-14.4,-56.44,76.35,2.46
Kitale,43,KE,1559434900,93,1.02,35.0,56.01,0.31
Mana,54,RS,1559434901,100,43.52,20.24,51.8,2.24
Belyy Yar,0,RU,1559434901,81,53.6,91.39,46.4,6.71
Wewak,98,PG,1559434901,71,-3.55,143.63,83.19,8.48
Maharajganj,0,IN,1559434901,59,26.11,84.5,88.05,15.1
Carutapera,97,BR,1559434902,91,-1.2,-46.02,77.97,6.06
Biak,90,ID,1559434902,95,-0.91,122.88,68.97,3.27
Tigil,96,RU,1559434902,72,57.8,158.67,52.59,5.61
Coihaique,75,CL,1559434757,93,-45.58,-72.07,37.4,3.13
Ziro,62,IN,1559434903,96,27.54,93.82,55.11,1.03
Nemuro,40,JP,1559434903,63,43.32,145.57,64.4,4.7
Jackson,1,US,1559434688,65,35.61,-88.82,84.2,5.28
Ciudad Bolivar,90,VE,1559434904,56,8.12,-63.55,86.61,6.82
Valparaiso,90,US,1559434904,77,41.47,-87.06,77.0,6.93
Turayf,0,SA,1559434904,26,31.68,38.65,82.4,16.11
Agirish,78,RU,1559434905,62,61.92,63.02,50.79,8.57
Mwense,10,ZM,1559434905,66,-10.39,28.7,56.55,4.47
Mahajanga,20,MG,1559434905,78,-15.72,46.32,73.4,4.7
Arona,0,IT,1559434906,72,45.76,8.56,71.01,2.24
Ati,11,TD,1559434906,26,13.21,18.34,95.07,6.17
Piltene,18,LV,1559434906,87,57.23,21.67,53.6,11.41
Viransehir,91,TR,1559434907,29,37.24,39.76,77.25,10.0
Horsham,54,AU,1559434907,75,-36.71,142.2,54.03,7.67
Wajir,21,KE,1559434908,80,1.75,40.07,75.63,12.39
Linjiang,33,CN,1559434908,51,41.81,126.91,62.85,7.99
Cidreira,100,BR,1559434908,81,-30.17,-50.22,63.93,10.76
College,90,US,1559434909,93,64.86,-147.8,54.0,5.82
Bilibino,91,RU,1559434909,90,68.06,166.44,39.09,6.17
Diffa,71,NE,1559434909,37,13.32,12.61,91.29,4.41
Pangnirtung,86,CA,1559434910,46,66.15,-65.72,46.29,4.38
Russell,0,AR,1559434910,81,-33.01,-68.8,50.0,2.24
Auki,100,NG,1559434910,54,12.18,6.51,84.27,9.46
Umm Lajj,45,SA,1559434910,60,25.02,37.27,87.69,10.07
Linqing,0,CN,1559434911,32,36.85,115.71,82.11,10.16
Salmon Creek,1,US,1559434911,36,45.71,-122.66,82.0,8.05
Gimli,0,CA,1559434912,32,50.63,-96.99,60.01,8.01
Vestmanna,93,FO,1559434912,81,62.16,-7.17,44.6,10.29
Waipawa,92,NZ,1559434912,84,-39.94,176.59,45.0,13.0
San Cristobal,40,EC,1559434913,76,-0.39,-78.55,60.8,4.7
Sioux Lookout,20,CA,1559434913,34,50.1,-91.92,53.6,8.05
Sorland,56,NO,1559434913,89,67.67,12.69,43.41,19.26
Katobu,64,ID,1559434913,88,-4.94,122.53,79.95,3.36
Usinsk,100,RU,1559434914,94,66.0,57.56,47.37,4.16
Kuteynykove,9,UA,1559434914,51,47.81,38.29,73.29,2.84
Alanya,0,TR,1559434914,93,36.55,32.0,62.6,2.24
Hualmay,100,PE,1559434614,93,-11.1,-77.61,62.49,19.89
Acapulco,75,MX,1559434915,74,16.86,-99.88,86.0,5.82
Ibra,0,OM,1559434915,35,22.69,58.55,86.43,3.62
Gorontalo,96,ID,1559434906,74,0.54,123.06,82.83,4.65
Lasa,20,CY,1559434916,93,34.92,32.53,71.6,5.82
Szany,1,HU,1559434916,100,47.46,17.3,64.0,8.28
La Antigua,78,CO,1559434916,96,6.72,-76.08,70.41,1.48
Panguna,73,PG,1559434916,77,-6.32,155.48,84.27,17.87
Honiara,90,SB,1559434917,100,-9.43,159.96,78.8,6.93
Aswan,0,EG,1559434917,13,24.09,32.9,95.0,9.17
Chipinge,0,ZW,1559434917,82,-20.19,32.62,54.21,2.66
Broome,92,GB,1559434918,82,52.47,1.45,64.99,6.93
Dharchula,8,IN,1559434626,37,29.85,80.53,49.53,8.43
Mareeba,75,AU,1559434918,73,-16.99,145.42,73.0,18.34
Sao Filipe,70,CV,1559434919,85,14.9,-24.5,73.11,18.07
Ettaiyapuram,100,IN,1559434919,69,9.15,78.0,83.19,13.73
Alzamay,35,RU,1559434919,50,55.55,98.67,45.03,4.25
Adrar,0,DZ,1559434919,20,27.87,-0.29,77.0,11.41
Vao,88,EE,1559434920,88,59.1,26.19,52.95,11.45
Saint-Leu,35,RE,1559434920,56,-21.15,55.28,72.0,6.93
Urucara,99,BR,1559434920,89,-2.54,-57.76,76.89,1.66
Concepcion,100,CO,1559434921,92,9.56,-73.66,76.53,1.97
Fairbanks,90,US,1559434713,93,64.84,-147.72,54.0,5.82
Christchurch,99,NZ,1559434736,70,-43.53,172.64,46.99,17.22
Eyl,100,SO,1559434922,74,7.98,49.82,78.87,11.12
Tocopilla,0,CL,1559434922,86,-22.09,-70.2,64.29,19.33
Chapais,75,CA,1559434922,46,49.78,-74.86,53.6,5.82
Manado,20,ID,1559434629,74,1.49,124.85,82.4,3.36
Tezu,6,IN,1559434923,55,27.93,96.16,75.27,2.95
Wladyslawowo,20,PL,1559434923,87,54.79,18.4,59.0,6.93
Hamilton,90,CA,1559434821,100,43.26,-79.87,66.0,4.7
Dunyapur,0,PK,1559434923,48,29.8,71.74,87.8,4.0
Yenagoa,100,NG,1559434924,95,4.92,6.26,74.91,2.93
Dhidhdhoo,93,MV,1559434924,76,6.88,73.1,85.17,12.55
Shimoda,75,JP,1559434925,83,34.7,138.93,71.6,9.17
La Ronge,75,CA,1559434925,25,55.1,-105.3,57.2,9.17
Pacific Grove,75,US,1559434925,72,36.62,-121.92,69.01,11.41
Port Hardy,40,CA,1559434926,51,50.7,-127.42,59.0,14.99
Paamiut,37,GL,1559434926,91,61.99,-49.67,36.57,8.68
Manavgat,0,TR,1559434926,83,36.79,31.44,70.0,4.7
Saint-Esteve,40,FR,1559434927,100,42.71,2.84,62.01,1.12
Boyolangu,64,ID,1559434927,88,-8.09,111.9,72.93,8.03
Huilong,97,CN,1559434928,73,28.89,110.18,71.67,2.01
Oksfjord,90,NO,1559434928,93,70.24,22.35,41.0,16.11
Charlottesville,1,US,1559434783,94,38.03,-78.48,73.99,0.83
Sangar,15,RU,1559434928,47,63.92,127.47,61.23,8.08
Holme,99,GB,1559434929,68,53.7,-2.31,66.2,4.7
Berdigestyakh,81,RU,1559434929,45,62.1,126.7,58.71,8.14
Hasaki,75,JP,1559434929,78,35.73,140.83,73.99,1.12
Murray Bridge,3,AU,1559434930,80,-35.12,139.28,57.99,5.01
Merauke,64,ID,1559434930,81,-8.49,140.4,81.39,23.62
Sobolevo,0,RU,1559434930,93,54.43,31.9,54.93,5.01
Darhan,15,MN,1559434931,59,49.49,105.92,50.07,2.93
Komsomolskiy,99,RU,1559434931,96,67.55,63.78,34.95,9.95
Pisco,40,PE,1559434932,30,-13.71,-76.2,71.6,6.93
Japura,100,ID,1559434932,97,-0.42,102.29,74.01,1.86
Malinyi,47,TZ,1559434933,76,-8.94,36.14,64.65,3.56
Tres Passos,100,BR,1559434636,83,-27.46,-53.93,64.11,4.56
Prince Rupert,1,CA,1559434919,71,54.32,-130.32,55.4,10.29
Dengzhou,0,CN,1559434934,38,32.69,112.08,78.33,6.69
La Palma,100,CO,1559434935,94,5.36,-74.39,70.05,2.51
Kloulklubed,75,PW,1559434935,88,7.04,134.26,82.4,6.93
Pangkalanbuun,93,ID,1559434907,89,-2.68,111.62,77.79,1.97
Galveston,75,US,1559434936,69,40.58,-86.19,80.01,13.87
Ozernovskiy,96,RU,1559434936,75,51.5,156.52,49.35,7.02
Along,16,IN,1559434936,73,28.17,94.8,58.89,4.27
Yecla,0,ES,1559434937,48,38.61,-1.12,64.99,2.24
Makakilo City,75,US,1559434937,48,21.35,-158.09,89.6,5.82
Comodoro Rivadavia,0,AR,1559434937,93,-45.87,-67.48,46.4,1.12
Katherine,51,AU,1559434938,18,-14.47,132.26,68.0,19.46
Ouargaye,100,BF,1559434938,58,11.5,0.06,84.45,8.75
Pocri,95,PA,1559434938,94,8.27,-80.55,70.77,1.59
Havelock,90,US,1559434939,88,34.88,-76.9,71.6,12.75
Bodden Town,20,KY,1559434939,74,19.28,-81.25,86.0,9.17
Kollo,0,NE,1559434939,58,13.34,2.32,84.2,8.05
Bundaberg,90,AU,1559434939,77,-24.87,152.35,73.99,9.17
Zhangye,9,CN,1559434940,26,38.94,100.46,63.57,7.85
Djambala,56,CG,1559434940,87,-2.55,14.76,71.31,4.63
Cockburn Town,0,TC,1559434940,78,21.46,-71.14,81.57,17.65
Pasaje,68,MX,1559434941,65,24.93,-103.81,71.13,20.24
Nanortalik,5,GL,1559434941,86,60.14,-45.24,35.67,3.78
Manali,81,IN,1559434941,82,32.25,77.19,24.33,7.14
Nagapattinam,100,IN,1559434942,70,10.76,79.84,84.81,13.87
Pauini,74,BR,1559434942,84,-7.71,-67.0,77.97,2.21
Buraydah,0,SA,1559434942,26,26.33,43.97,84.2,3.36
Vermillion,1,US,1559434942,49,42.78,-96.93,73.0,10.29
Jasper,5,US,1559434738,58,33.83,-87.28,87.01,4.32
Tamiahua,98,MX,1559434943,84,21.28,-97.45,82.11,12.5
Nizwa,0,OM,1559434943,38,22.93,57.53,81.39,1.68
Bereda,90,ES,1559434944,93,43.27,-7.54,61.0,1.12
Kalianget,20,ID,1559434944,83,-7.35,109.91,75.2,2.24
Kailua,75,US,1559434944,62,21.39,-157.74,89.6,14.99
Santa Cruz,90,US,1559434687,87,36.97,-122.03,82.99,8.05
El Alto,0,BO,1559434946,29,-16.5,-68.19,50.0,5.82
Trat,90,TH,1559434946,74,12.25,102.51,89.01,1.5
Cotonou,20,BJ,1559434946,94,6.37,2.43,78.8,6.93
Belaya Gora,0,RU,1559434947,37,68.54,146.19,60.15,7.58
Camocim,96,BR,1559434947,89,-2.9,-40.84,76.89,6.44
Faaa,20,PF,1559434947,66,-17.55,-149.6,84.2,13.87
Gazanjyk,36,TM,1559434948,46,39.24,55.52,76.71,17.29
Adelaide,40,AU,1559434659,82,-34.93,138.6,60.01,4.7
Olinda,75,EC,1559434949,70,-2.03,-79.75,84.2,2.24
Beipiao,1,CN,1559434949,44,41.8,120.76,70.95,12.62
Mitu,12,IR,1559434949,41,36.2,46.09,53.31,1.97
Valentin Gomez Farias,90,MX,1559434949,46,24.05,-104.7,71.6,4.7
Bernal,40,AR,1559434950,82,-34.72,-58.3,61.0,5.82
Gohpur,0,IN,1559434950,75,26.89,93.63,74.73,2.51
Hauterive,0,FR,1559434950,67,46.09,3.45,62.6,1.12
Bonavista,56,CA,1559434801,85,48.65,-53.11,37.0,11.45
Hubli,78,IN,1559434951,84,15.35,75.17,73.65,6.96
Kasungu,14,MW,1559434951,85,-13.04,33.48,53.31,5.41
Iquitos,40,PE,1559434930,78,-3.75,-73.25,82.4,3.36
Bandar,99,ID,1559434952,95,-4.2,104.14,73.47,1.81
Kamenka,4,RU,1559434952,77,53.19,44.05,64.99,5.64
Karatau,28,KZ,1559434952,67,43.18,70.46,59.0,9.1
Omsukchan,89,RU,1559434953,50,62.53,155.8,56.37,9.42
Rio Gallegos,90,AR,1559434953,93,-51.62,-69.22,41.0,13.87
Karratha,0,AU,1559434721,14,-20.74,116.85,65.01,22.93
Bure,98,NG,1559434954,59,10.52,10.33,81.75,4.7
Columbia,1,US,1559434832,48,38.95,-92.33,82.99,12.75
Ixtapa,75,MX,1559434954,74,20.71,-105.21,80.6,11.41
Emba,20,CY,1559434954,93,34.81,32.42,71.6,5.82
Vernon,1,CA,1559434689,22,50.27,-119.27,87.8,9.17
Villarrica,90,CL,1559434955,93,-39.28,-72.23,53.6,6.93
Sile,1,US,1559434955,30,35.56,-106.37,81.0,21.92
Saint Anthony,1,US,1559434956,31,43.97,-111.68,73.4,6.29
Tilichiki,99,RU,1559434956,65,60.47,166.1,53.67,10.89
Peschanokopskoye,5,RU,1559434956,52,46.18,41.08,69.33,2.35
Carinhanha,9,BR,1559434957,46,-14.3,-43.77,77.07,3.83
Carauari,80,BR,1559434957,87,-4.88,-66.9,77.61,1.05
Mtsamboro,20,YT,1559434957,73,-12.7,45.07,77.0,10.29
Dingle,74,PH,1559434957,62,11.0,122.67,86.79,10.92
Corbelia,99,BR,1559434958,98,-24.8,-53.31,63.03,4.63
Nadym,25,RU,1559434958,78,65.53,72.51,34.23,9.91
Tevaitoa,0,PF,1559434959,67,-16.78,-151.5,81.21,6.71
Thabazimbi,0,ZA,1559434959,83,-24.59,27.41,39.0,2.93
Berlevag,94,NO,1559434959,94,70.86,29.09,39.09,15.41
Mezhdurechensk,75,RU,1559434959,93,53.69,88.07,46.11,2.73
Supe,100,PE,1559434960,93,-10.8,-77.72,62.49,19.89
Wuning,67,CN,1559434960,88,29.26,120.23,70.59,1.61
Petropavlovsk-Kamchatskiy,75,RU,1559434960,76,53.05,158.65,50.0,2.24
Colac,62,AU,1559434961,98,-38.34,143.59,54.0,5.99
Atambua,56,ID,1559434961,72,-9.11,124.89,82.29,19.75
Mala Vyska,100,UA,1559434961,95,48.64,31.63,63.93,6.93
Trairi,91,BR,1559434962,95,-3.28,-39.27,72.57,3.44
Aykhal,0,RU,1559434962,24,65.95,111.51,59.0,6.71
Vitim,15,RU,1559434962,64,59.44,112.57,54.21,9.19
Pesaro,0,IT,1559434962,67,43.91,12.91,66.99,3.36
Lorengau,97,PG,1559434963,86,-2.02,147.27,81.75,8.52
Labuhan,97,ID,1559434963,86,-2.54,115.51,78.33,0.56
North Port,20,US,1559434963,79,27.04,-82.24,84.99,6.93
Sisimiut,33,GL,1559434931,82,66.94,-53.67,36.57,13.18
Maryville,1,US,1559434839,50,40.35,-94.87,82.99,13.87
Ankang,0,CN,1559434964,51,32.73,108.99,69.15,3.83
Havoysund,90,NO,1559434965,93,71.0,24.66,39.2,16.11
Dunedin,91,NZ,1559434965,79,-45.87,170.5,46.0,15.99
Burnie,50,AU,1559434965,82,-41.05,145.91,52.0,5.23
Saint-Joseph,0,FR,1559434966,77,43.56,6.97,69.01,3.36
Asmar,63,AF,1559434966,32,35.03,71.36,60.15,9.46
Ballina,100,IE,1559434966,92,54.11,-9.15,57.99,11.01
Coquimbo,0,CL,1559434805,82,-29.95,-71.34,57.99,2.24
Kiama,1,AU,1559434967,66,-34.67,150.86,64.99,8.05
Kutum,76,SD,1559434967,16,14.2,24.66,83.19,4.81
Bemidji,90,US,1559434967,33,47.48,-94.89,64.99,6.93
Sinegorye,100,RU,1559434968,85,62.09,150.53,49.53,6.67
Lac du Bonnet,0,CA,1559434968,31,50.25,-96.06,60.01,1.01
Puerto del Rosario,0,ES,1559434969,69,28.5,-13.86,73.4,6.93
Garowe,100,SO,1559434969,60,8.41,48.48,77.43,13.49
Los Llanos de Aridane,0,ES,1559434969,88,28.66,-17.92,68.0,11.41
Ginir,96,ET,1559434969,91,7.14,40.71,58.35,3.96
Faanui,0,PF,1559434970,68,-16.48,-151.75,81.75,8.34
Qaqortoq,7,GL,1559434970,56,60.72,-46.03,42.8,12.75
Kyren,100,RU,1559434970,74,51.68,102.13,37.47,5.61
Cefalu,28,IT,1559434971,78,38.04,14.02,62.01,1.01
Maniitsoq,77,GL,1559434971,71,65.42,-52.9,40.35,4.76
Porosozero,92,RU,1559434972,87,62.72,32.71,47.01,8.03
Dicabisagan,61,PH,1559434972,68,17.08,122.42,85.89,2.51
Beitbridge,0,ZA,1559434972,52,-22.21,29.99,59.07,5.55
Nouakchott,0,MR,1559434972,88,18.08,-15.98,68.0,18.34
Dakar,40,SN,1559434973,88,14.69,-17.45,71.6,9.17
Asosa,83,ET,1559434973,84,10.07,34.53,66.99,3.36
Elbrus,35,RU,1559434973,54,43.26,42.65,41.43,7.7
Zeya,48,RU,1559434974,41,53.74,127.27,58.71,3.78
